,Unnamed: 0,City,Lat,Lng,Max Temp,Humidity,Cloudiness,Wind Speed,Country,Date
0,0,adamstown,-25.066,-130.1015,293.8,84,8,10.38,PN,1696036520
1,1,pisco,-13.7,-76.2167,291.18,88,0,7.72,PE,1696036462
2,2,emerald,-23.5333,148.1667,300.01,45,0,5.41,AU,1696036520
3,3,oban,56.4127,-5.4706,284.47,84,30,2.07,GB,1696036520
4,4,east london,-33.0153,27.9116,293.4,56,100,1.9,ZA,1696036510
5,5,saipan,15.1355,145.701,304.54,66,40,2.57,MP,1696036520
6,6,mazagao,-0.115,-51.2894,301.18,73,2,2.83,BR,1696036521
7,7,albany,42.6001,-73.9662,287.49,93,100,0.45,US,1696036519
8,8,i-n-salah,27.1935,2.4607,301.59,28,0,11.19,DZ,1696036521
9,9,port-aux-francais,-49.35,70.2167,274.06,69,48,17.96,TF,1696036521
10,10,amungan,15.3652,119.9582,301.98,76,100,0.63,PH,1696036521
11,11,belmonte,-15.8631,-38.8828,296.79,82,80,5.76,BR,1696036521
12,12,vilyuysk,63.7553,121.6247,277.96,89,100,2.85,RU,1696036521
13,13,kruisfontein,-34.0033,24.7314,286.42,82,88,5.52,ZA,1696036521
14,14,jamestown,42.097,-79.2353,288.95,93,0,3.09,US,1696036320
15,15,saudarkrokur,65.7461,-19.6394,277.08,84,95,0.78,IS,1696036522
16,16,edinburgh of the seven seas,-37.0676,-12.3116,284.13,90,100,14.98,SH,1696036522
17,17,slavgorod,52.9978,78.6449,284.44,69,100,1.14,RU,1696036522
18,18,saint david's,12.0333,-61.6667,301.84,89,20,4.63,GD,1696036522
19,19,bredasdorp,-34.5322,20.0403,290.04,57,100,8.63,ZA,1696036522
20,20,klyuchi,52.2667,79.1667,283.83,71,100,1.92,RU,1696036522
21,21,blackmans bay,-43.0167,147.3167,294.55,54,97,1.42,AU,1696036522
22,22,opuwo,-18.0607,13.84,293.09,43,96,1.83,,1696036522
23,23,sal rei,16.1833,-22.9167,299.35,86,82,4.77,CV,1696036522
24,24,tiksi,71.6872,128.8694,271.62,85,100,6.04,RU,1696036522
25,25,margaret river,-33.95,115.0667,287.78,61,100,6.23,AU,1696036523
26,26,longyearbyen,78.2186,15.6401,273.06,74,75,3.6,SJ,1696036523
27,27,ushuaia,-54.8,-68.3,283.96,37,0,5.14,AR,1696036523
28,28,guerrero negro,27.9769,-114.0611,293.54,74,0,6.97,MX,1696036523
29,29,christchurch,-43.5333,172.6333,285.05,49,20,12.35,NZ,1696036236
30,30,genhe,50.7833,121.5167,281.35,55,68,2.75,CN,1696036523
31,31,dykan'ka,49.825,34.5279,286.77,50,5,1.84,UA,1696036523
32,32,hawaiian paradise park,19.5933,-154.9731,301.88,75,40,4.12,US,1696036353
33,33,grytviken,-54.2811,-36.5092,272.61,90,43,3.91,GS,1696036523
34,34,bethel,41.3712,-73.414,287.56,89,100,3.09,US,1696036524
35,35,isafjordur,66.0755,-23.124,276.73,90,97,2.21,IS,1696036524
36,36,waitangi,-43.9535,-176.5597,284.72,77,100,4.02,NZ,1696036524
37,37,orapa,-21.2833,25.3667,292.68,70,0,4.42,BW,1696036524
38,38,mount gambier,-37.8333,140.7667,296.97,35,100,5.04,AU,1696036524
39,39,papatowai,-46.5619,169.4708,281.45,73,94,8.73,NZ,1696036524
40,40,port mathurin,-19.6833,63.4167,296.34,63,100,7.86,MU,1696036524
41,41,northam,51.0333,-4.2167,286.29,94,100,2.72,GB,1696036524
42,42,port elizabeth,-33.918,25.5701,289.31,67,0,4.12,ZA,1696036524
43,43,kuta,-8.7233,115.1723,300.12,83,20,2.24,ID,1696036525
44,44,ejura,7.3856,-1.3562,296.17,94,92,1.71,GH,1696036525
45,45,mejit,10.2753,170.8646,300.93,80,100,5.71,MH,1696036525
46,46,atafu village,-8.5421,-172.5159,301.89,70,64,3.85,TK,1696036525
47,47,iqaluit,63.7506,-68.5145,275.0,87,100,7.72,CA,1696036525
48,48,salekhard,66.53,66.6019,272.14,79,100,3.03,RU,1696036525
49,49,saint-pierre,-21.3393,55.4781,294.02,64,0,2.57,RE,1696036525
50,50,la ronge,55.1001,-105.2842,283.29,87,100,3.09,CA,1696036525
51,51,khandyga,62.6667,135.6,276.85,37,74,2.08,RU,1696036525
52,52,fonte boa,-2.4959,-66.2662,303.28,53,100,1.01,BR,1696036526
53,53,yellowknife,62.456,-114.3525,279.49,81,22,1.79,CA,1696036141
54,54,labrador city,52.9463,-66.9114,282.66,60,0,1.45,CA,1696036526
55,55,narasingapuram,13.6167,79.3333,298.53,75,100,1.85,IN,1696036526
56,56,stanley,54.868,-1.6985,283.59,93,0,4.63,GB,1696036526
57,57,hithadhoo,-0.6,73.0833,300.92,78,50,6.43,MV,1696036526
58,58,viveiro,43.6623,-7.5934,292.1,90,2,2.27,ES,1696036526
59,59,lazaro cardenas,17.9583,-102.2,302.02,81,13,3.13,MX,1696036526
60,60,thompson,55.7435,-97.8558,281.24,93,75,0.0,CA,1696036526
61,61,qaqortoq,60.7167,-46.0333,275.87,72,5,2.41,GL,1696036527
62,62,forster,-32.1667,152.5167,298.31,62,0,4.31,AU,1696036513
63,63,ezine,39.7856,26.3408,290.3,70,28,1.99,TR,1696036527
64,64,bassar,9.25,0.7833,295.84,89,100,1.18,TG,1696036527
65,65,kurumkan,54.3,110.3,281.96,72,15,0.58,RU,1696036527
66,66,manokwari,-0.8667,134.0833,301.6,71,87,1.84,ID,1696036527
67,67,arraial do cabo,-22.9661,-42.0278,293.6,78,98,7.01,BR,1696036527
68,68,porto novo,6.4965,2.6036,298.3,92,85,2.52,BJ,1696036527
69,69,acapulco de juarez,16.8634,-99.8901,304.05,74,40,4.63,MX,1696036494
70,70,mankono,8.0586,-6.1897,296.02,95,35,0.92,CI,1696036527
71,71,keflavik,64.0049,-22.5624,278.39,81,20,2.57,IS,1696036527
72,72,fisterra,42.9049,-9.2629,291.49,91,4,2.31,ES,1696036528
73,73,invercargill,-46.4,168.35,281.49,81,100,8.05,NZ,1696036528
74,74,sur,22.5667,59.5289,303.03,42,0,2.99,OM,1696036528
75,75,ola,59.5833,151.2833,280.06,84,100,1.79,RU,1696036528
76,76,college,64.8569,-147.8028,281.04,56,75,1.54,US,1696036416
77,77,kone,-21.0595,164.8658,299.38,42,0,4.5,NC,1696036528
78,78,san patricio,28.017,-97.5169,302.5,68,0,6.33,US,1696036528
79,79,hamilton,39.1834,-84.5333,292.96,89,0,0.89,US,1696035847
80,80,vorgashor,67.5833,63.95,272.55,79,100,2.72,RU,1696036528
81,81,wailua homesteads,22.0669,-159.378,302.39,76,40,6.17,US,1696036528
82,82,anadyr,64.75,177.4833,279.43,86,100,3.0,RU,1696036528
83,83,kavieng,-2.5744,150.7967,301.78,71,100,1.17,PG,1696036529
84,84,tura,25.5198,90.2201,296.92,97,100,1.44,IN,1696036529
85,85,puerto natales,-51.7236,-72.4875,277.45,87,100,1.61,CL,1696036529
86,86,remire-montjoly,4.9167,-52.2667,300.17,89,0,1.54,GF,1696036529
87,87,el bauga,18.262,33.9081,306.43,21,41,1.01,SD,1696036529
88,88,kodiak,57.79,-152.4072,284.88,71,20,3.6,US,1696036529
89,89,kaga bandoro,6.9896,19.1874,295.48,97,96,0.94,CF,1696036529
90,90,port lincoln,-34.7333,135.8667,299.81,24,6,8.93,AU,1696036529
91,91,badger,64.8,-147.5333,281.0,55,75,1.54,US,1696036396
92,92,kindu,-2.95,25.95,294.53,90,100,0.73,CD,1696036529
93,93,inari,68.906,27.0288,283.26,97,100,0.98,FI,1696036529
94,94,olonkinbyen,70.9221,-8.7187,275.61,81,97,7.01,SJ,1696036530
95,95,freetown,8.484,-13.2299,299.99,83,75,2.06,SL,1696036530
96,96,tahe,52.3333,124.7333,281.54,59,55,3.62,CN,1696036530
97,97,ribeira grande,38.5167,-28.7,293.02,92,100,3.58,PT,1696036530
98,98,talnakh,69.4865,88.3972,269.38,87,82,5.47,RU,1696036530
99,99,weno,7.4515,151.8468,303.12,84,100,5.14,FM,1696036530
100,100,nova vicosa,-17.8919,-39.3719,297.12,72,100,5.89,BR,1696036530
101,101,nuuk,64.1835,-51.7216,274.49,100,100,4.92,GL,1696036530
102,102,whakatane,-37.9585,176.9854,285.8,84,100,5.35,NZ,1696036530
103,103,winsen,53.3667,10.2167,286.2,99,0,3.34,DE,1696036530
104,104,shahrud,36.4182,54.9763,285.16,45,3,1.42,IR,1696036531
105,105,port alfred,-33.5906,26.891,292.27,61,89,3.05,ZA,1696036531
106,106,happy valley-goose bay,53.3168,-60.3315,284.32,71,40,2.57,CA,1696036509
107,107,zima,53.9202,102.0442,281.6,75,100,4.29,RU,1696036531
108,108,severnoye,56.3491,78.3619,279.85,90,100,2.24,RU,1696036531
109,109,rioja,-29.4111,-66.8507,288.75,36,2,0.91,AR,1696036531
110,110,leava,-14.3,-178.1667,300.1,76,45,7.49,WF,1696036531
111,111,punta arenas,-53.15,-70.9167,279.21,65,0,3.6,CL,1696036531
112,112,uturoa,-16.7333,-151.4333,299.0,78,12,7.62,PF,1696036531
113,113,ghat,24.9647,10.1728,298.36,35,62,0.49,LY,1696036531
114,114,uporovo,56.3109,66.2693,284.8,89,100,1.33,RU,1696036531
115,115,san antonio de pale,-1.4014,5.6325,297.74,84,59,3.94,GQ,1696036532
116,116,flin flon,54.7682,-101.865,285.59,72,100,2.05,CA,1696036532
117,117,codajas,-3.8367,-62.0569,302.14,51,75,0.72,BR,1696036532
118,118,dukku,10.8231,10.7717,296.43,73,100,1.74,NG,1696036532
119,119,kenai,60.5544,-151.2583,284.2,59,0,3.09,US,1696036532
120,120,jumla,29.2747,82.1838,285.9,74,13,2.07,NP,1696036532
121,121,amga,60.8953,131.9608,277.37,45,61,1.46,RU,1696036532
122,122,ketchikan,55.3422,-131.6461,285.41,76,40,3.6,US,1696036532
123,123,ust-nera,64.5667,143.2,271.83,71,23,2.16,RU,1696036532
124,124,avarua,-21.2078,-159.775,300.18,78,20,3.6,CK,1696036532
125,125,akureyri,65.6835,-18.0878,277.11,87,75,1.54,IS,1696036533
126,126,zhangye,38.9342,100.4517,288.43,28,0,0.49,CN,1696036533
127,127,guangyuan,32.442,105.823,292.56,79,100,1.3,CN,1696036533
128,128,nizhnyaya tavda,57.6731,66.1725,280.65,93,100,4.83,RU,1696036533
129,129,lebu,-37.6167,-73.65,283.75,90,3,5.17,CL,1696036533
130,130,umm kaddadah,13.6017,26.6876,304.5,40,72,2.68,SD,1696036533
131,131,codrington,-38.2667,141.9667,296.19,43,75,7.66,AU,1696036533
132,132,labytnangi,66.6572,66.4183,272.26,79,100,2.67,RU,1696036533
133,133,alofi,-19.0595,-169.9187,297.09,94,74,4.63,NU,1696036533
134,134,yuzhno-kurilsk,44.0306,145.8556,290.26,71,100,3.39,RU,1696036533
135,135,ilulissat,69.2167,-51.1,274.16,80,100,0.0,GL,1696036534
136,136,riyadh,24.6877,46.7219,299.23,15,0,3.03,SA,1696035900
137,137,sulak,43.2734,47.5146,292.7,72,100,6.11,RU,1696036534
138,138,vorkuta,67.5,64.0,272.66,79,100,2.64,RU,1696036534
139,139,broome,42.2506,-75.833,290.49,93,61,0.89,US,1696036534
140,140,jiagedaqi,50.4167,124.1167,284.27,52,82,3.73,CN,1696036534
141,141,tubarjal,30.4999,38.216,297.7,27,0,3.67,SA,1696036534
142,142,panambi,-28.2925,-53.5017,291.22,83,94,2.32,BR,1696036477
143,143,kailua-kona,19.6406,-155.9956,302.16,76,40,6.17,US,1696036492
144,144,tondano,1.3038,124.9112,301.2,60,79,3.28,ID,1696036534
145,145,lyman,48.9884,37.8023,286.6,40,0,2.01,UA,1696036534
146,146,nova sintra,14.8667,-24.7167,297.92,80,59,3.38,CV,1696036535
147,147,puerto baquerizo moreno,-0.9,-89.6,296.07,80,96,4.75,EC,1696036535
148,148,zhizdra,53.746,34.7395,283.9,81,7,2.24,RU,1696036535
149,149,puerto ayora,-0.7393,-90.3518,296.79,89,89,1.79,EC,1696036535
150,150,salina cruz,16.1667,-95.2,302.44,66,100,2.78,MX,1696036535
151,151,toliara,-23.35,43.6667,295.34,85,0,2.26,MG,1696036535
152,152,shimoda,34.6667,138.95,300.35,69,35,2.32,JP,1696036535
153,153,kapoeta,4.7717,33.5903,299.08,47,10,0.35,SS,1696036535
154,154,azul,-36.777,-59.8585,277.31,83,0,3.27,AR,1696036535
155,155,bondoukou,8.0333,-2.8,295.58,97,98,1.29,CI,1696036536
156,156,lahoysk,54.2016,27.8503,282.15,66,86,3.43,BY,1696036536
157,157,khartoum,15.5518,32.5324,307.81,29,4,2.27,SD,1696036371
158,158,sinabang,2.4803,96.3801,300.08,82,94,3.42,ID,1696036536
159,159,praia da vitoria,38.7333,-27.0667,294.29,94,40,3.09,PT,1696036536
160,160,st. john's,47.5649,-52.7093,282.81,88,75,2.24,CA,1696036446
161,161,da nang,16.0678,108.2208,303.14,74,20,0.51,VN,1696036536
162,162,mount pearl,47.5166,-52.7813,282.34,89,75,1.03,CA,1696036536
163,163,zeerust,-25.5369,26.0751,289.22,45,4,0.74,ZA,1696036536
164,164,hammerfest,70.6634,23.6821,280.4,100,100,2.06,NO,1696036536
165,165,okha,53.5739,142.9478,284.99,87,100,2.81,RU,1696036537
166,166,georgetown,5.4112,100.3354,303.16,83,20,1.03,MY,1696036269
167,167,krasnokamensk,50.0979,118.0369,283.11,45,12,3.49,RU,1696036537
168,168,maintirano,-18.0667,44.0167,297.6,77,7,2.72,MG,1696036537
169,169,vernon,50.2581,-119.2691,286.35,66,100,1.03,CA,1696036537
170,170,hilo,19.7297,-155.09,302.0,71,40,4.12,US,1696036395
171,171,beipiao,41.7919,120.7792,290.12,38,1,6.53,CN,1696036537
172,172,payson,40.0444,-111.7321,298.14,26,0,2.68,US,1696036537
173,173,hasaki,35.7333,140.8333,301.37,77,84,6.67,JP,1696036537
174,174,blackwater,-23.5833,148.8833,301.31,48,0,5.07,AU,1696036537
175,175,vadso,70.0744,29.7487,280.64,93,97,4.12,NO,1696036537
176,176,guiyang,26.5833,106.7167,295.42,88,20,1.0,CN,1696036538
177,177,bilibino,68.0546,166.4372,268.92,93,99,2.65,RU,1696036538
178,178,jindabyne,-36.4167,148.6333,296.68,15,3,2.09,AU,1696036538
179,179,kingston,17.997,-76.7936,299.4,96,0,0.45,JM,1696036443
180,180,coquimbo,-29.9533,-71.3436,286.0,87,0,2.57,CL,1696036538
181,181,tazovsky,67.4667,78.7,270.13,79,14,7.14,RU,1696036538
182,182,whitehorse,60.7161,-135.0538,279.27,91,100,4.02,CA,1696036538
183,183,salym,60.0625,71.4789,271.56,91,6,2.18,RU,1696036538
184,184,luau,-10.7073,22.2247,293.18,77,26,0.68,AO,1696036538
185,185,deqen,29.9618,90.7188,282.2,75,100,1.84,CN,1696036538
186,186,saldanha,-33.0117,17.9442,287.74,92,100,4.34,ZA,1696036539
187,187,leer,53.2316,7.461,286.44,95,11,3.74,DE,1696036539
188,188,tshabong,-26.05,22.45,292.01,13,0,4.24,BW,1696036539
189,189,baile herculane,44.8797,22.4125,289.57,50,5,1.68,RO,1696036539
190,190,praya,14.9215,-23.5087,299.45,89,0,1.54,CV,1696036539
191,191,qashyr,53.0675,76.1036,283.77,71,99,1.33,KZ,1696036539
192,192,malanje,-9.5402,16.341,294.17,84,97,1.77,AO,1696036539
193,193,santana,-0.0583,-51.1817,301.25,74,20,3.09,BR,1696036263
194,194,usinsk,65.9939,57.5281,272.91,88,45,4.78,RU,1696036539
195,195,qoryooley,1.7878,44.53,297.98,88,84,5.0,SO,1696036539
196,196,gadzhiyevo,69.2551,33.3362,283.16,94,100,3.46,RU,1696036539
197,197,port angeles,48.1181,-123.4307,288.35,74,0,2.57,US,1696036540
198,198,touros,-5.1989,-35.4608,298.3,73,33,7.53,BR,1696036382
199,199,borba,-4.3878,-59.5939,303.77,42,100,1.0,BR,1696036540
200,200,priargunsk,50.3691,119.1012,282.6,48,29,3.61,RU,1696036540
201,201,revda,56.801,59.9303,281.65,98,100,2.88,RU,1696036540
202,202,bailen,38.0964,-3.7779,299.4,39,11,0.36,ES,1696036392
203,203,ulety,51.3572,112.4849,281.53,74,9,1.91,RU,1696036540
204,204,barra de santo antonio,-9.4047,-35.5072,298.75,70,100,4.66,BR,1696036540
205,205,penhalonga,-18.8911,32.6978,289.08,93,43,1.74,ZW,1696036540
206,206,gering,41.8258,-103.6605,293.71,65,0,3.6,US,1696036540
207,207,mabaruma,8.2,-59.7833,299.84,87,66,1.94,GY,1696036540
208,208,gerdzhyush,37.5651,41.3916,287.5,35,0,0.43,TR,1696036541
209,209,sitka,57.0531,-135.33,284.09,71,100,1.54,US,1696036541
210,210,bel ombre,-4.6167,55.4167,299.06,89,75,6.17,SC,1696036541
211,211,pasni,25.2631,63.471,302.65,27,0,10.56,PK,1696036541
212,212,altoona,40.5187,-78.3947,290.58,84,87,1.04,US,1696036541
213,213,talakan,50.3167,130.3667,282.5,93,100,0.49,RU,1696036541
214,214,sedan,49.6667,5.0,285.22,93,92,0.48,FR,1696036541
215,215,tazacorte,28.629,-17.9293,295.69,77,0,2.68,ES,1696036542
216,216,el calafate,-50.3408,-72.2768,279.55,61,100,1.3,AR,1696036542
217,217,summerville,33.0185,-80.1757,295.26,92,0,2.06,US,1696036542
218,218,irtyshsk,53.3333,75.4572,282.17,71,85,2.43,KZ,1696036542
219,219,haiku-pauwela,20.9219,-156.3051,303.16,67,40,10.29,US,1696036543
220,220,nampa,43.5407,-116.5635,294.92,37,75,4.63,US,1696036543
221,221,tambura,5.6,27.4667,293.7,94,100,1.55,SS,1696036544
222,222,west island,-12.1568,96.8225,299.14,78,100,5.66,CC,1696036544
223,223,elverum,60.8819,11.5623,281.76,96,47,2.08,NO,1696036544
224,224,al bawiti,28.3492,28.8659,298.41,47,50,3.54,EG,1696036544
225,225,lompoc,34.6391,-120.4579,293.58,95,100,5.14,US,1696036544
226,226,lucaya,26.5333,-78.6667,300.11,94,75,1.54,BS,1696036544
227,227,errachidia,31.9275,-4.4285,295.18,30,0,1.03,MA,1696036544
228,228,kuala tungkal,-0.8167,103.4667,299.33,75,100,3.14,ID,1696036544
229,229,kapuskasing,49.4169,-82.4331,289.15,59,75,4.12,CA,1696036545
230,230,sao joao da barra,-21.6403,-41.0511,293.97,78,100,3.22,BR,1696036545
231,231,am timan,11.0297,20.2827,296.72,87,88,1.76,TD,1696036545
232,232,mbeni,-11.5014,43.3775,294.94,81,0,4.03,KM,1696036545
233,233,howard springs,-12.497,131.047,305.83,39,17,1.47,AU,1696036545
234,234,cabo san lucas,22.8909,-109.9124,305.71,60,20,5.14,MX,1696036339
235,235,zelenogorskiy,55.0333,87.0,277.91,98,98,1.48,RU,1696036545
236,236,arroio dos ratos,-30.0772,-51.7292,290.93,89,100,1.18,BR,1696036545
237,237,faya-largeau,17.9257,19.1043,304.65,35,78,0.49,TD,1696036545
238,238,jinghong,21.991,100.7341,295.75,97,92,0.48,CN,1696036546
239,239,island harbour,50.724,-1.2758,285.92,93,100,1.49,GB,1696036546
240,240,gobabis,-22.45,18.9667,290.14,14,0,3.25,,1696036546
241,241,ta`u,-14.2336,-169.5144,300.11,79,51,4.82,AS,1696036546
242,242,porto franco,-6.3383,-47.3992,303.03,36,100,1.23,BR,1696036546
243,243,egilsstadir,65.2653,-14.3948,277.1,93,75,1.03,IS,1696036546
244,244,pimentel,-6.8367,-79.9342,294.31,78,0,7.2,PE,1696036546
245,245,ironwood,46.4547,-90.171,289.34,88,20,2.06,US,1696036546
246,246,el granada,37.5027,-122.4694,293.87,86,100,6.69,US,1696036546
247,247,al qubbah,32.7616,22.2424,291.1,87,6,5.66,LY,1696036546
248,248,quellon,-43.1167,-73.6167,279.1,83,27,3.09,CL,1696036546
249,249,baotou,40.6522,109.8222,285.39,29,0,1.37,CN,1696036547
250,250,shenjiamen,29.9576,122.298,299.01,86,25,6.32,CN,1696036547
251,251,babayevo,59.3936,35.9371,285.57,87,100,2.28,RU,1696036547
252,252,iskateley,67.6803,53.1512,276.23,79,100,7.51,RU,1696036547
253,253,monteros,-27.1674,-65.4983,289.21,42,15,2.36,AR,1696036547
254,254,udachny,66.4167,112.4,276.18,93,100,2.37,RU,1696036547
255,255,essaouira,31.5125,-9.77,295.87,64,0,2.06,MA,1696036547
256,256,kish,26.5578,54.0194,301.3,78,0,0.0,IR,1696036547
257,257,dudinka,69.4058,86.1778,269.61,89,100,8.83,RU,1696036547
258,258,magadan,59.5667,150.8,280.02,86,100,2.12,RU,1696036547
259,259,holualoa,19.6228,-155.9522,300.06,78,40,6.17,US,1696036537
260,260,cabedelo,-6.9811,-34.8339,298.52,73,99,7.27,BR,1696036548
261,261,flying fish cove,-10.4217,105.6791,298.97,83,100,5.14,CX,1696036548
262,262,platteville,42.7342,-90.4785,295.28,61,0,3.6,US,1696036268
263,263,petropavlovsk-kamchatsky,53.0452,158.6483,283.48,58,0,3.0,RU,1696036548
264,264,laojunmiao,39.8333,97.7333,283.43,30,0,5.47,CN,1696036548
265,265,loango,-4.6719,11.8312,297.1,89,100,2.72,CG,1696036548
266,266,hermanus,-34.4187,19.2345,288.05,85,100,7.52,ZA,1696036548
267,267,gambela,8.25,34.5833,294.08,95,85,1.76,ET,1696036548
268,268,lagoa,39.05,-27.9833,292.57,86,100,3.08,PT,1696036548
269,269,mersa matruh,31.3525,27.2453,297.82,72,100,3.48,EG,1696036549
270,270,manta,-0.95,-80.7333,296.03,83,75,6.17,EC,1696036403
271,271,belyy yar,53.6039,91.3903,282.09,93,75,0.0,RU,1696036549
272,272,smara,26.7384,-11.6719,297.63,60,10,2.76,EH,1696036549
273,273,lusambo,-4.9667,23.45,294.96,88,21,0.62,CD,1696036549
274,274,acheng,45.5454,126.977,282.72,86,100,1.51,CN,1696036549
275,275,slave lake,55.2834,-114.769,283.14,76,100,2.57,CA,1696036545
276,276,az zawr,29.4425,48.2747,306.49,40,0,6.51,KW,1696036549
277,277,ancud,-41.8697,-73.8203,279.31,84,12,2.25,CL,1696036549
278,278,bucerias,20.75,-105.3333,304.14,84,75,2.57,MX,1696036398
279,279,kimberley,-28.7323,24.7623,290.48,15,6,4.22,ZA,1696036550
280,280,bac lieu,9.285,105.7244,299.39,84,99,3.87,VN,1696036550
281,281,severo-yeniseyskiy,60.3725,93.0408,277.0,95,100,4.51,RU,1696036550
282,282,pandan,14.0453,124.1694,301.98,79,98,3.24,PH,1696036550
283,283,fortuna,40.5982,-124.1573,290.01,96,100,2.06,US,1696036550
284,284,aykhal,66.0,111.5,275.52,98,100,3.28,RU,1696036550
285,285,igrim,63.1906,64.4162,273.72,72,70,1.79,RU,1696036550
286,286,bikenibeu village,1.3673,173.1241,305.13,66,75,3.09,KI,1696036550
287,287,nagqu,31.5,92.0,276.45,78,13,1.99,CN,1696036550
288,288,mata-utu,-13.2816,-176.1745,299.95,71,100,6.03,WF,1696036550
289,289,kiunga,-6.1219,141.2906,300.69,72,92,2.26,PG,1696036550
290,290,yaren,-0.5472,166.916,301.89,75,54,4.89,NR,1696036551
291,291,vila velha,-20.3297,-40.2925,294.12,90,100,3.09,BR,1696036551
292,292,tianfu,37.1936,122.0511,294.96,64,0,3.82,CN,1696036551
293,293,nanakuli,21.3906,-158.1547,304.12,62,100,7.2,US,1696036551
294,294,zabid,14.1951,43.3152,303.96,70,0,1.42,YE,1696036551
295,295,ponta delgada,37.7333,-25.6667,296.55,94,75,6.17,PT,1696036551
296,296,minas de marcona,-15.2119,-75.1103,287.33,84,61,4.84,PE,1696036551
297,297,banff,51.1762,-115.5698,277.72,93,74,2.57,CA,1696036551
298,298,arica,-18.475,-70.3042,291.28,77,100,2.57,CL,1696036551
299,299,dakoro,14.5106,6.765,302.95,45,100,5.79,NE,1696036551
300,300,ballina,-28.8667,153.5667,300.81,60,0,5.42,AU,1696036552
301,301,luganville,-15.5333,167.1667,298.92,61,92,7.11,VU,1696036552
302,302,mirnyy,62.5353,113.9611,279.95,70,100,3.13,RU,1696036552
303,303,polyarnyy,69.1989,33.4478,283.34,95,100,3.15,RU,1696036424
304,304,tolanaro,-25.0319,46.9987,292.81,91,3,3.35,MG,1696036552
305,305,kununurra,-15.7667,128.7333,305.14,48,5,5.66,AU,1696036552
306,306,new richmond,45.123,-92.5366,294.84,100,0,2.57,US,1696036552
307,307,bykovo,55.6361,38.0803,286.63,100,64,2.0,RU,1696036552
308,308,newman,37.3138,-121.0208,297.34,58,100,1.79,US,1696036552
309,309,morehead,37.2711,-87.1764,294.26,91,0,0.0,US,1696036552
310,310,balabac,7.9868,117.0645,301.29,80,96,7.13,PH,1696036552
311,311,utrik,11.2278,169.8474,301.82,77,90,5.88,MH,1696036552
312,312,ouesso,1.6136,16.0517,295.7,92,97,1.11,CG,1696036553
313,313,iguape,-24.7081,-47.5553,293.48,86,100,3.18,BR,1696036553
314,314,sisimiut,66.9395,-53.6735,274.19,82,38,2.75,GL,1696036553
315,315,piacabucu,-10.4056,-36.4344,297.95,73,100,4.58,BR,1696036553
316,316,trinidad,-14.8333,-64.9,303.2,46,75,1.89,BO,1696036553
317,317,paramirim,-13.4425,-42.2389,296.75,58,17,2.56,BR,1696036553
318,318,caribou,46.8606,-68.012,285.94,87,0,0.0,US,1696036553
319,319,bartica,6.4,-58.6167,301.33,85,8,1.44,GY,1696036553
320,320,thunder bay,48.4001,-89.3168,288.56,96,100,2.67,CA,1696036280
321,321,morteros,-30.7116,-61.9986,288.72,36,60,5.41,AR,1696036553
322,322,grenaa,56.4158,10.8783,287.27,93,0,8.43,DK,1696036553
323,323,valchedram,43.6964,23.4447,291.32,43,38,1.56,BG,1696036554
324,324,porto murtinho,-21.6989,-57.8825,297.29,45,2,2.77,BR,1696036554
325,325,kerikeri,-35.2268,173.9474,285.64,70,21,8.11,NZ,1696036554
326,326,qamdo,31.1667,97.2333,279.84,62,2,2.26,CN,1696036554
327,327,constantia,44.1833,28.65,290.76,62,64,6.95,RO,1696036446
328,328,rio grande,-32.035,-52.0986,289.23,93,100,3.39,BR,1696036419
329,329,viedma,-40.8135,-62.9967,277.65,78,0,2.41,AR,1696036554
330,330,dzuunharaa,48.8523,106.4579,279.61,69,0,1.96,MN,1696036554
331,331,guozhen,34.3659,107.359,292.1,74,100,0.84,CN,1696036554
332,332,yamba,-5.9,22.3,296.08,78,30,0.76,CD,1696036554
333,333,shalqar,47.8333,59.6,286.94,53,49,3.45,KZ,1696036555
334,334,oranjemund,-28.55,16.4333,286.52,91,8,0.23,,1696036555
335,335,dapaong,10.8639,0.205,298.68,78,100,1.06,TG,1696036555
336,336,samtse,26.899,89.0995,297.81,73,100,1.98,BT,1696036555
337,337,yeppoon,-23.1333,150.7333,301.03,61,0,5.77,AU,1696036555
338,338,aswan,24.0934,32.907,305.93,17,0,5.05,EG,1696036555
339,339,port-gentil,-0.7193,8.7815,298.34,86,95,4.71,GA,1696036555
340,340,port augusta,-32.5,137.7667,303.47,11,0,8.17,AU,1696036555
341,341,rehoboth,-23.3167,17.0833,290.5,23,0,1.46,,1696036555
342,342,vyaz'ma,55.2104,34.2951,284.4,78,51,2.99,RU,1696036556
343,343,margate,51.3813,1.3862,286.65,81,90,0.45,GB,1696036556
344,344,kogalym,62.2654,74.4791,271.77,85,7,5.3,RU,1696036556
345,345,sorong,-0.8833,131.25,301.17,79,36,5.54,ID,1696036556
346,346,lesnoy,57.6198,63.0784,279.81,93,100,4.78,RU,1696036556
347,347,vanersborg,58.3807,12.3234,287.46,88,40,4.63,SE,1696036556
348,348,parli vaijnath,18.85,76.5333,295.94,91,44,1.55,IN,1696036556
349,349,kani keli,-12.9536,45.1033,296.74,76,73,3.66,YT,1696036556
350,350,as sulayyil,20.4607,45.5779,298.29,17,0,0.96,SA,1696036556
351,351,nyurba,63.2842,118.3319,280.58,78,93,3.35,RU,1696036556
352,352,erenhot,43.6475,111.9767,284.01,41,0,3.45,CN,1696036556
353,353,puerto deseado,-47.7503,-65.8938,280.25,75,6,10.44,AR,1696036557
354,354,verkhnevilyuysk,63.4453,120.3167,279.82,81,98,3.1,RU,1696036557
355,355,geraldton,-28.7667,114.6,292.38,63,40,5.14,AU,1696036557
356,356,boca do acre,-8.7522,-67.3978,297.24,93,66,0.58,BR,1696036557
357,357,portland,45.5234,-122.6762,289.52,79,100,1.54,US,1696036530
358,358,roswell,34.0232,-84.3616,297.9,84,75,2.06,US,1696036369
359,359,ostersund,63.1792,14.6357,281.4,100,20,1.34,SE,1696036557
360,360,arawa,-6.2132,155.5367,302.78,74,100,1.17,PG,1696036557
361,361,kapa'a,22.0752,-159.319,303.14,76,40,6.17,US,1696036337
362,362,damnoen saduak,13.5182,99.9547,299.05,83,100,1.0,TH,1696036557
363,363,terrace,54.5163,-128.6035,287.16,62,40,1.54,CA,1696036558
364,364,dera ghazi khan,30.0561,70.6348,298.72,45,0,4.49,PK,1696036558
365,365,kande,9.9578,1.0447,298.56,81,100,0.79,TG,1696036558
366,366,saint-philippe,-21.3585,55.7679,293.92,76,3,3.69,RE,1696036558
367,367,kristiansund,63.1115,7.732,284.51,93,100,1.03,NO,1696036558
368,368,tofol,5.3248,163.0078,301.03,89,100,5.42,FM,1696036558
369,369,saint-francois,46.4154,3.9054,288.84,94,0,0.0,FR,1696036558
370,370,fastiv,50.0767,29.9177,286.12,57,0,2.43,UA,1696036558
371,371,rabo de peixe,37.8,-25.5833,295.88,99,75,6.17,PT,1696036558
372,372,wismar,53.9,11.4667,287.66,92,0,1.34,DE,1696036559
373,373,new norfolk,-42.7826,147.0587,295.21,42,100,4.69,AU,1696036559
374,374,aasiaat,68.7098,-52.8699,270.06,90,87,2.12,GL,1696036559
375,375,nemuro,43.3236,145.575,290.7,72,100,5.29,JP,1696036559
376,376,preobrazheniye,42.9019,133.9064,291.36,66,78,0.71,RU,1696036559
377,377,szecseny,48.0806,19.5202,287.57,63,2,0.98,HU,1696036559
378,378,karymskoye,51.6167,114.35,283.16,66,18,1.02,RU,1696036559
379,379,lihue,21.9789,-159.3672,302.73,75,40,6.17,US,1696036559
380,380,xitangtuo,39.3147,117.4794,294.15,34,0,5.9,CN,1696036559
381,381,prince rupert,54.3161,-130.3201,284.98,82,0,6.69,CA,1696036559
382,382,fale old settlement,-9.3852,-171.2468,301.92,70,6,4.7,TK,1696036559
383,383,brandon,27.9378,-82.2859,301.46,88,40,3.6,US,1696036358
384,384,chonchi,-42.6128,-73.8092,279.88,94,17,0.24,CL,1696036560
385,385,shimla,31.1,77.1667,288.54,72,40,0.0,IN,1696036258
386,386,bolobo,-2.1667,16.2333,296.94,77,98,0.54,CD,1696036560
387,387,shohimardon,39.9839,71.8028,281.58,56,53,1.56,UZ,1696036560
388,388,colonia,50.9333,6.95,287.02,90,0,0.51,DE,1696036447
389,389,barah,13.7,30.3667,303.18,47,13,3.46,SD,1696036560
390,390,carnarvon,-24.8667,113.6333,293.52,62,0,10.58,AU,1696036276
391,391,can tho,10.0333,105.7833,295.14,94,75,2.06,VN,1696036560
392,392,celendin,-6.8703,-78.1517,287.95,77,100,2.07,PE,1696036560
393,393,luanda,-8.8368,13.2343,296.15,83,75,2.57,AO,1696036380
394,394,ternate,0.8,127.4,300.97,79,49,6.2,ID,1696036561
395,395,puerto leguizamo,-0.1934,-74.7819,298.85,70,15,0.91,CO,1696036561
396,396,ceelbuur,4.685,46.6176,298.01,83,32,7.1,SO,1696036561
397,397,kharan,28.5833,65.4167,292.24,17,0,1.17,PK,1696036561
398,398,howrah,22.5892,88.3103,299.15,94,100,5.14,IN,1696036561
399,399,victorica,-36.2151,-65.4359,284.13,37,0,4.32,AR,1696036561
400,400,semera,11.501,41.201,302.75,47,5,1.16,ET,1696036561
401,401,al kharijah,25.4514,30.5464,303.3,17,10,4.17,EG,1696036561
402,402,illizi,26.4833,8.4667,300.04,28,100,3.18,DZ,1696036562
403,403,lorengau,-2.0226,147.2712,301.97,73,88,3.2,PG,1696036562
404,404,al qadarif,14.0349,35.3834,298.76,76,10,3.72,SD,1696036562
405,405,norilsk,69.3535,88.2027,269.5,91,91,4.7,RU,1696036562
406,406,kilimatinde,-5.85,34.95,293.5,72,17,2.91,TZ,1696036562
407,407,kendallville,41.4414,-85.265,289.67,96,0,0.0,US,1696036263
408,408,hami,42.8,93.45,290.72,22,100,2.97,CN,1696036562
409,409,serowe,-22.3833,26.7167,290.41,78,0,2.39,BW,1696036562
410,410,den burg,53.0542,4.7972,290.36,70,100,4.63,NL,1696036562
411,411,bandon,51.7469,-8.7425,284.92,95,100,2.18,IE,1696036562
412,412,es castell,39.8795,4.2854,294.53,100,0,2.57,ES,1696036563
413,413,namibe,-15.1961,12.1522,290.85,88,10,3.65,AO,1696036563
414,414,richards bay,-28.783,32.0377,293.87,87,4,2.79,ZA,1696036563
415,415,urengoy,65.9667,78.3667,273.77,88,46,6.71,RU,1696036563
416,416,nukus,42.4531,59.6103,284.14,71,0,3.09,UZ,1696036563
417,417,xinqing,48.2333,129.5,283.72,71,100,0.86,CN,1696036563
418,418,sovetskiy,61.3614,63.5842,273.65,83,40,2.68,RU,1696036564
419,419,robbah,33.2797,6.9098,296.95,37,0,2.38,DZ,1696036564
420,420,afaahiti,-17.75,-149.2833,300.08,85,52,8.06,PF,1696036564
421,421,ingeniero jacobacci,-41.3427,-69.5448,281.96,46,0,4.92,AR,1696036565
422,422,porto seguro,-16.4497,-39.0647,296.44,83,75,3.6,BR,1696036565
423,423,pudozh,61.8099,36.5345,285.97,90,100,3.26,RU,1696036565
424,424,hermiston,45.8404,-119.2895,289.06,74,100,2.06,US,1696036533
425,425,conceicao do mato dentro,-19.0372,-43.425,291.83,97,55,1.15,BR,1696036565
426,426,port hedland,-20.3167,118.5667,303.18,62,67,2.57,AU,1696036565
427,427,muroto-misakicho,33.2833,134.15,299.32,77,78,1.82,JP,1696036567
428,428,fada,9.5667,8.3,291.88,92,20,0.69,NG,1696036567
429,429,dauphin,51.1494,-100.0502,288.23,63,75,2.06,CA,1696036567
430,430,vilyuchinsk,52.9306,158.4028,284.3,55,100,1.2,RU,1696036567
431,431,villa gesell,-37.2639,-56.973,282.07,64,100,7.0,AR,1696036567
432,432,ulladulla,-35.35,150.4667,301.35,28,0,1.29,AU,1696036567
433,433,zaragoza,41.6561,-0.8773,295.94,45,0,1.03,ES,1696036282
434,434,griffith,41.5284,-87.4237,293.11,84,0,2.06,US,1696036568
435,435,magugu,-4.0167,35.7667,292.77,79,76,1.48,TZ,1696036568
436,436,yichang,30.7144,111.2847,295.23,88,100,0.13,CN,1696036568
437,437,tela,15.7833,-87.45,300.42,86,32,1.72,HN,1696036471
438,438,kudahuvadhoo,2.6708,72.8944,301.52,75,46,7.02,MV,1696036568
439,439,singkil,-7.9855,111.4161,302.1,44,100,3.86,ID,1696036568
440,440,bealanana,-14.55,48.7333,286.15,97,82,1.7,MG,1696036568
441,441,acajutla,13.5928,-89.8275,301.29,80,54,0.28,SV,1696036568
442,442,gamba,-2.65,10.0,297.47,87,100,2.67,GA,1696036568
443,443,dryden,49.7833,-92.7503,285.31,100,0,1.54,CA,1696036569
444,444,singaraja,-8.112,115.0882,301.81,53,71,0.85,ID,1696036569
445,445,goryachiy klyuch,44.6308,39.13,290.94,63,70,1.48,RU,1696036569
446,446,cockburn town,21.4612,-71.1419,302.52,79,0,7.63,TC,1696036569
447,447,cururupu,-1.8283,-44.8683,295.89,93,18,1.42,BR,1696036569
448,448,trashi yangtse,27.6116,91.498,291.99,82,100,1.35,BT,1696036569
449,449,pamandzi,-12.7967,45.2794,297.03,83,0,0.0,YT,1696036569
450,450,dodola,6.9833,39.1833,283.66,88,32,1.0,ET,1696036569
451,451,nishinoomote,30.7333,131.0,300.46,83,75,4.63,JP,1696036569
452,452,nar'yan-mar,67.6713,53.087,276.3,79,100,7.53,RU,1696036570
453,453,igarka,67.4667,86.5833,268.86,94,100,8.37,RU,1696036570
454,454,st ives,50.2086,-5.4875,286.33,88,98,3.0,GB,1696036570
455,455,al bayda',32.7627,21.7551,290.45,92,23,2.92,LY,1696036570
456,456,san,13.3034,-4.8956,302.03,51,70,2.96,ML,1696036500
457,457,broken hill,-31.95,141.4333,301.99,15,0,5.25,AU,1696036570
458,458,ovalle,-30.5983,-71.2003,289.99,59,0,1.12,CL,1696036570
459,459,mana,5.6592,-53.7767,300.09,80,6,5.09,GF,1696036570
460,460,mirador,-6.3708,-44.3631,302.05,36,100,0.72,BR,1696036279
461,461,berezovyy,51.6667,135.7,281.3,92,100,0.88,RU,1696036570
462,462,maceio,-9.6658,-35.7353,298.84,83,40,2.06,BR,1696036473
463,463,aioun,16.6614,-9.6149,306.76,28,84,4.94,MR,1696036571
464,464,gualeguaychu,-33.0094,-58.5172,284.08,93,4,4.44,AR,1696036571
465,465,shady side,38.8418,-76.5122,292.41,90,100,2.57,US,1696036571
466,466,yigo village,13.5361,144.8886,303.77,74,20,3.09,GU,1696036571
467,467,benjamin hill,30.1667,-111.1,302.96,26,0,6.11,MX,1696036571
468,468,tomatlan,19.9333,-105.25,299.64,94,26,2.02,MX,1696036571
469,469,tezu,27.9167,96.1667,301.26,68,77,0.96,IN,1696036571
470,470,juan rodriguez clara,17.9833,-95.4083,297.95,86,93,2.57,MX,1696036571
471,471,lesogorsk,56.0458,99.5136,281.07,89,47,2.8,RU,1696036571
472,472,begamganj,23.6,78.3333,295.96,64,98,1.34,IN,1696036572
473,473,veraval,20.9,70.3667,300.2,76,71,3.81,IN,1696036572
474,474,selfoss,63.9331,-20.9971,277.06,76,22,2.78,IS,1696036572
475,475,palmer,42.1584,-72.3287,285.29,86,100,4.12,US,1696036572
476,476,peace river,56.2501,-117.286,281.32,87,100,1.54,CA,1696036374
477,477,beykonak,36.3257,30.303,296.01,73,0,1.96,TR,1696036572
478,478,maumere,-8.6199,122.2111,300.83,60,17,0.69,ID,1696036572
479,479,kolonia town,6.964,158.206,302.21,94,100,1.54,FM,1696036572
480,480,solleftea,63.1667,17.2667,280.07,96,77,1.18,SE,1696036572
481,481,salinopolis,-0.6136,-47.3561,300.03,80,14,5.65,BR,1696036572
482,482,middlebury (village),44.0153,-73.1673,287.56,91,100,1.21,US,1696036573
483,483,susuman,62.7833,148.1667,271.2,68,71,1.77,RU,1696036573
484,484,waingapu,-9.6567,120.2641,302.11,55,94,5.49,ID,1696036573
485,485,tsaratanana,-16.7833,47.65,292.83,78,16,3.69,MG,1696036573
486,486,tupa,-21.9347,-50.5136,297.72,51,6,3.74,BR,1696036573
487,487,sumbe,-11.2061,13.8437,295.19,90,99,2.35,AO,1696036573
488,488,gushu,31.5598,118.4829,293.14,93,100,2.43,CN,1696036573
489,489,buba,11.5833,-15.0,298.23,96,100,1.38,GW,1696036573
490,490,blenheim,-41.516,173.9528,287.88,36,73,1.79,NZ,1696036573
491,491,nanao,37.05,136.9667,302.74,66,100,0.86,JP,1696036573
492,492,al jaradiyah,16.5795,42.9124,302.87,70,13,1.1,SA,1696036574
493,493,enewetak,11.3474,162.3373,302.04,76,57,5.53,MH,1696036574
494,494,kawambwa,-9.7915,29.0791,294.96,41,87,3.18,ZM,1696036574
495,495,harper,4.375,-7.7169,298.42,86,71,2.61,LR,1696036574
496,496,cedeira,43.6797,-8.0209,290.58,90,0,2.29,ES,1696036574
497,497,lhasa,29.65,91.1,284.23,65,98,1.5,CN,1696036574
498,498,namtsy,62.7161,129.6658,274.74,43,100,1.11,RU,1696036574
499,499,ciudad del carmen,18.6333,-91.8333,303.17,70,20,6.17,MX,1696036574
500,500,bunia,1.5667,30.25,290.87,85,100,1.47,CD,1696036574
501,501,soure,-0.7167,-48.5233,300.34,75,25,4.91,BR,1696036574
502,502,pico truncado,-46.7949,-67.9573,282.71,58,64,7.74,AR,1696036575
503,503,najran,17.4924,44.1277,293.51,22,6,0.89,SA,1696036575
504,504,tanah rata,4.475,101.3704,292.97,77,16,0.12,MY,1696036575
505,505,cruz alta,-28.6386,-53.6064,288.27,95,55,3.5,BR,1696036575
506,506,camargo,27.6667,-105.1667,302.11,23,12,4.03,MX,1696036575
507,507,buxton,53.2574,-1.9098,283.87,93,100,1.74,GB,1696036575
508,508,vila franca do campo,37.7167,-25.4333,296.38,99,100,4.59,PT,1696036575
509,509,wanning,18.8003,110.3967,300.75,84,86,2.81,CN,1696036575
510,510,lewistown,40.5992,-77.5714,291.03,97,75,0.0,US,1696036562
511,511,trairi,-3.2778,-39.2689,298.59,78,99,5.05,BR,1696036421
512,512,pathein,16.7833,94.7333,297.41,98,100,3.4,MM,1696036563
513,513,sinan,34.8262,126.1086,290.66,75,100,0.9,KR,1696036343
514,514,lata,40.1629,-8.3327,292.55,58,0,1.61,PT,1696036576
515,515,santa fe do sul,-20.2111,-50.9258,299.51,52,6,3.34,BR,1696036576
516,516,dolbeau-mistassini,48.8763,-72.212,283.51,81,2,0.84,CA,1696036576
517,517,sakata,38.9167,139.855,295.25,64,75,5.66,JP,1696036576
518,518,gizo,-8.103,156.8419,300.71,79,98,2.67,SB,1696036576
519,519,east ballina,-28.8667,153.5833,300.82,62,0,5.59,AU,1696036576
520,520,almenara,-16.1836,-40.6944,296.22,76,99,2.27,BR,1696036576
521,521,mount isa,-20.7333,139.5,303.02,25,0,6.17,AU,1696036576
522,522,general acha,-37.377,-64.6043,281.21,37,0,3.4,AR,1696036576
523,523,saint-joseph,-21.3667,55.6167,293.41,72,0,3.72,RE,1696036577
524,524,samastipur,25.85,85.7833,299.97,86,100,2.11,IN,1696036577
525,525,goronyo,13.4423,5.6763,300.06,62,100,2.86,NG,1696036577
526,526,khanty-mansiysk,61.0042,69.0019,271.21,93,0,2.0,RU,1696036577
527,527,san andres,12.5847,-81.7006,303.16,74,20,3.09,CO,1696036577
528,528,brokopondo,4.75,-55.1667,301.05,57,2,4.41,SR,1696036577
529,529,uvira,-3.4067,29.1458,297.44,70,66,1.67,CD,1696036577
530,530,djibo,14.1022,-1.6306,303.49,37,100,5.65,BF,1696036577
531,531,sundumbili,-29.1337,31.3975,294.02,65,4,2.42,ZA,1696036577
532,532,kyakhta,50.3508,106.4494,280.2,67,10,2.16,RU,1696036578
533,533,sept-iles,50.2001,-66.3821,285.15,89,0,1.03,CA,1696036421
534,534,buka,40.8108,69.1986,289.37,41,100,2.09,UZ,1696036578
535,535,rikaze,29.25,88.8833,283.98,51,100,0.98,CN,1696036578
536,536,chahar burj,34.2448,62.1917,286.38,37,0,2.55,AF,1696036578
537,537,portrush,55.1959,-6.6493,282.86,89,100,0.89,GB,1696036578
538,538,bridgeport,41.167,-73.2048,289.61,93,100,5.66,US,1696036314
539,539,martan-chu,43.0637,45.5622,288.09,85,55,1.02,RU,1696036578
540,540,walvis bay,-22.9575,14.5053,285.42,91,0,2.83,,1696036578
541,541,mawlaik,23.6333,94.4167,298.07,95,100,0.41,MM,1696036578
542,542,bereznik,62.8551,42.7072,283.59,94,100,3.54,RU,1696036578
543,543,bridgewater,44.3835,-64.5155,286.97,95,100,1.03,CA,1696036579
544,544,caleta de carquin,-11.0925,-77.6267,292.2,87,100,3.93,PE,1696036579
545,545,ngambe,4.2333,10.6167,293.88,100,100,0.64,CM,1696036579
546,546,fendou,46.65,124.8667,286.64,57,94,5.24,CN,1696036579
547,547,nadym,65.5333,72.5167,272.15,90,98,4.06,RU,1696036579
548,548,nogliki,51.8333,143.1667,286.79,67,13,2.81,RU,1696036579
549,549,kavaratti,10.5669,72.642,300.85,81,100,8.34,IN,1696036579
550,550,tonkino,57.3726,46.4629,282.52,87,96,2.21,RU,1696036579
551,551,yengema,8.7167,-11.1667,295.09,99,99,0.46,SL,1696036579
552,552,mayya,61.7333,130.2811,274.77,38,75,0.63,RU,1696036580
553,553,usogorsk,63.4106,48.6872,281.62,95,97,2.91,RU,1696036580
554,554,matola,-25.9622,32.4589,296.12,78,0,4.12,MZ,1696036580
555,555,hadibu,12.65,54.0333,299.4,86,98,2.81,YE,1696036580
556,556,krasnoarmeysk,51.0239,45.6969,285.32,72,12,3.04,RU,1696036580
557,557,nowshahr,36.649,51.496,294.12,88,75,1.03,IR,1696036580
558,558,menaka,15.9182,2.4022,304.2,44,18,6.47,ML,1696036580
559,559,arkhangel'sk,64.5401,40.5433,284.49,96,100,3.64,RU,1696036580
560,560,dongcun,36.7767,121.1597,293.97,70,0,4.16,CN,1696036580
561,561,kuala terengganu,5.3302,103.1408,301.12,78,20,1.03,MY,1696036580
562,562,sumbawa besar,-8.5,117.4333,304.91,35,100,3.41,ID,1696036581
563,563,baiyin,36.5583,104.2081,287.23,74,93,2.13,CN,1696036581
564,564,lethem,3.3803,-59.7968,304.12,46,78,2.59,GY,1696036581
565,565,mahina,-17.5065,-149.489,301.02,65,40,4.12,PF,1696036581
566,566,shahrak,34.1074,64.3052,274.94,64,0,1.9,AF,1696036581
567,567,tindouf,27.6711,-8.1474,297.4,25,11,2.06,DZ,1696036581
568,568,chifeng,42.2683,118.9636,288.63,33,5,7.72,CN,1696036581
569,569,cheremushki,52.8356,91.3944,282.02,96,100,0.97,RU,1696036581
570,570,khash,28.2211,61.2158,288.82,21,0,2.15,IR,1696036581
571,571,mhlume,-26.0333,31.85,295.06,77,0,2.14,SZ,1696036582
572,572,carutapera,-1.195,-46.02,298.64,82,7,3.29,BR,1696036582
573,573,kill devil hills,36.0307,-75.676,294.25,91,100,5.14,US,1696036582
574,574,grand-bassam,5.2118,-3.7388,299.13,93,99,1.9,CI,1696036582
575,575,glace bay,46.1969,-59.957,284.8,93,40,2.24,CA,1696036582
576,576,acarau,-2.8856,-40.12,298.91,78,85,7.36,BR,1696036582
577,577,robertsport,6.7533,-11.3686,299.35,84,100,2.2,LR,1696036582
578,578,oliver,49.1831,-119.5524,288.1,51,11,4.12,CA,1696036582
579,579,las veredas,23.1388,-109.7075,305.35,73,10,0.45,MX,1696036582
580,580,paita,-5.0892,-81.1144,293.41,85,70,5.66,PE,1696036582
581,581,papao,-17.75,-149.55,300.97,83,22,8.66,PF,1696036583
582,582,queenstown,-31.8976,26.8753,289.81,26,100,3.8,ZA,1696036583
583,583,naze,28.3667,129.4833,299.66,79,5,1.49,JP,1696036583
584,584,sandnessjoen,66.0217,12.6316,282.44,81,84,1.73,NO,1696036583
585,585,eureka,40.8021,-124.1637,291.9,90,93,0.89,US,1696036583
